<?xml version="1.0" encoding="utf-8"?>
<markers><country lat="53.6707" lng="-4.39453" zoom="5" name="BelfastBikes" hotline="+443433571551" domain="bu" country="GB" country_name="United Kingdom" terms="http://www.belfastbikes.co.uk/media/GTC_Belfast_Bikes.pdf" policy="" website="http://www.belfastbikes.co.uk/" booked_bikes="0" set_point_bikes="566" available_bikes="113" capped_available_bikes="1" ><city uid="238" lat="54.5969" lng="-5.92918" zoom="15" maps_icon="" alias="" break="0" name="Belfast" num_places="42" refresh_rate="1663" bounds='{"south_west":{"lat":54.584,"lng":-5.9583},"north_east":{"lat":54.6124,"lng":-5.8921}}' booked_bikes="0" set_point_bikes="566" available_bikes="113" ><place uid="263966" lat="54.597175" lng="-5.93097" name="City Hall" spot="1" number="3902" bikes="4" bike_racks="20" free_racks="16" terminal_type="7inch" bike_numbers="83047,83003,83342,82893" bike_types='{"14":4}' place_type="0" rack_locks="1" ><bike number="83047" bike_type="0" active="1" state="ok" /><bike number="83003" bike_type="0" active="1" state="ok" /><bike number="83342" bike_type="0" active="1" state="ok" /><bike number="82893" bike_type="0" active="1" state="ok" /></place><place uid="316463" lat="54.601309" lng="-5.92187" name="Donegall Quay" spot="1" number="3904" bikes="1" bike_racks="16" free_racks="15" terminal_type="7inch" bike_numbers="83029" bike_types='{"14":1}' place_type="0" rack_locks="1" ><bike number="83029" bike_type="0" active="1" state="ok" /></place><place uid="316476" lat="54.598224" lng="-5.924024" name="Victoria Square / Victoria Street" spot="1" number="3903" bikes="3" bike_racks="10" free_racks="6" terminal_type="7inch" bike_numbers="83086,83279,83395" bike_types='{"14":2,"undefined":1}' place_type="0" rack_locks="1" ><bike number="83086" bike_type="0" active="1" state="ok" /><bike number="83279" bike_type="0" active="1" state="ok" /><bike number="83395" bike_type="0" active="1" state="ok" /></place><place uid="316483" lat="54.595158" lng="-5.923503" name="St George's Market / Cromac Square" spot="1" number="3906" bikes="5" bike_racks="12" free_racks="7" terminal_type="7inch" bike_numbers="83099,83038,83306,83239,82902" bike_types='{"14":5}' place_type="0" rack_locks="1" ><bike number="83099" bike_type="0" active="1" state="ok" /><bike number="83038" bike_type="0" active="1" state="ok" /><bike number="83306" bike_type="0" active="1" state="ok" /><bike number="83239" bike_type="0" active="1" state="ok" /><bike number="82902" bike_type="0" active="1" state="ok" /></place><place uid="318473" lat="54.59533997604" lng="-5.9164381027222" name="Central Station / Mays Meadow" spot="1" number="3905" bikes="4" bike_racks="20" free_racks="16" terminal_type="7inch" bike_numbers="83020,83251,82908,82969" bike_types='{"14":4}' place_type="0" rack_locks="1" ><bike number="83020" bike_type="0" active="1" state="ok" /><bike number="83251" bike_type="0" active="1" state="ok" /><bike number="82908" bike_type="0" active="1" state="ok" /><bike number="82969" bike_type="0" active="1" state="ok" /></place><place uid="318474" lat="54.595408348947" lng="-5.9192833895213" name="Central Station / East Bridge Street" spot="1" number="3930" bikes="0" bike_racks="20" free_racks="20" terminal_type="7inch" place_type="0" rack_locks="1" /><place uid="318475" lat="54.592107671299" lng="-5.9257078170776" name="Gasworks (Cromac Street)" spot="1" number="3907" bikes="4" bike_racks="12" free_racks="7" terminal_type="7inch" bike_numbers="83080,83345,83437,83361" bike_types='{"14":3,"undefined":1}' place_type="0" rack_locks="1" ><bike number="83080" bike_type="0" active="1" state="ok" /><bike number="83345" bike_type="0" active="1" state="ok" /><bike number="83437" bike_type="0" active="1" state="ok" /><bike number="83361" bike_type="0" active="1" state="ok" /></place><place uid="318480" lat="54.589166666667" lng="-5.9333333333333" name="Botanic Avenue / Shaftesbury Square" spot="1" number="3909" bikes="1" bike_racks="16" free_racks="14" terminal_type="7inch" bike_numbers="83007" bike_types='{"14":1}' place_type="0" rack_locks="1" ><bike number="83007" bike_type="0" active="1" state="ok" /></place><place uid="318485" lat="54.594774" lng="-5.933173" name="Europa Bus Station / Blackstaff Square" spot="1" number="3910" bikes="1" bike_racks="16" free_racks="15" terminal_type="7inch" bike_numbers="83297" bike_types='{"14":1}' place_type="0" rack_locks="1" ><bike number="83297" bike_type="0" active="1" state="ok" /></place><place uid="318488" lat="54.593512512185" lng="-5.9343874454498" name="Great Victoria Street / Hope Street" spot="1" number="3911" bikes="0" bike_racks="18" free_racks="19" terminal_type="7inch" place_type="0" rack_locks="1" /><place uid="318499" lat="54.601928110518" lng="-5.9333252906799" name="Smithfield / Winetavern Street" spot="1" number="3913" bikes="0" bike_racks="12" free_racks="12" terminal_type="7inch" place_type="0" rack_locks="1" /><place uid="318501" lat="54.603713" lng="-5.929348" name="Cathedral Gardens / York Street" spot="1" number="3914" bikes="1" bike_racks="20" free_racks="19" terminal_type="7inch" bike_numbers="83381" place_type="0" rack_locks="1" /><place uid="318504" lat="54.605103707785" lng="-5.932799577713" name="Carrick Hill/St Patricks Church" spot="1" number="3915" bikes="1" bike_racks="12" free_racks="11" terminal_type="7inch" bike_numbers="82930" bike_types='{"14":1}' place_type="0" rack_locks="1" ><bike number="82930" bike_type="0" active="1" state="ok" /></place><place uid="318506" lat="54.602338279868" lng="-5.925418138504" name="Dunbar Link / Gordon Street" spot="1" number="3916" bikes="0" bike_racks="8" free_racks="8" terminal_type="7inch" place_type="0" rack_locks="1" /><place uid="318523" lat="54.600710007485" lng="-5.9282505512238" name="North Street / Waring Street" spot="1" number="3917" bikes="0" bike_racks="16" free_racks="16" terminal_type="7inch" place_type="0" rack_locks="1" /><place uid="318529" lat="54.592772801121" lng="-5.9316301345825" name="Bankmore Square / Dublin Road" spot="1" number="3918" bikes="0" bike_racks="16" free_racks="16" terminal_type="7inch" place_type="0" rack_locks="1" /><place uid="318531" lat="54.597341389985" lng="-5.9348702430725" name="College Square East" spot="1" number="3919" bikes="1" bike_racks="16" free_racks="15" terminal_type="7inch" bike_numbers="83174" bike_types='{"14":1}' place_type="0" rack_locks="1" ><bike number="83174" bike_type="0" active="1" state="ok" /></place><place uid="318532" lat="54.599728040755" lng="-5.9363293647766" name="Millfield / Divis Street" spot="1" number="3920" bikes="0" bike_racks="18" free_racks="17" terminal_type="7inch" place_type="0" rack_locks="1" /><place uid="318535" lat="54.603867056497" lng="-5.91712474823" name="Odyssey / Sydenham Road" spot="1" number="3921" bikes="5" bike_racks="22" free_racks="3" terminal_type="7inch" bike_numbers="83166,83121,83093,83295,83276" bike_types='{"14":5}' place_type="0" rack_locks="1" ><bike number="83166" bike_type="0" active="1" state="ok" /><bike number="83121" bike_type="0" active="1" state="ok" /><bike number="83093" bike_type="0" active="1" state="ok" /><bike number="83295" bike_type="0" active="1" state="ok" /><bike number="83276" bike_type="0" active="1" state="ok" /></place><place uid="318537" lat="54.604722222222" lng="-5.9213888888889" name="Corporation Square" spot="1" number="3922" bikes="5" bike_racks="14" free_racks="1" terminal_type="7inch" bike_numbers="83169,83076,83245,83244,83225" bike_types='{"14":5,"undefined":2}' place_type="0" rack_locks="1" ><bike number="83169" bike_type="0" active="1" state="ok" /><bike number="83076" bike_type="0" active="1" state="ok" /><bike number="83245" bike_type="0" active="1" state="ok" /><bike number="83244" bike_type="0" active="1" state="ok" /><bike number="83225" bike_type="0" active="1" state="ok" /></place><place uid="318543" lat="54.594851759084" lng="-5.9274214804827" name="Alfred Street / St Malachy's Church" spot="1" number="3923" bikes="2" bike_racks="14" free_racks="10" terminal_type="7inch" bike_numbers="83146,83070" bike_types='{"14":2}' place_type="0" rack_locks="1" ><bike number="83146" bike_type="0" active="1" state="ok" /><bike number="83070" bike_type="0" active="1" state="ok" /></place><place uid="318545" lat="54.588357" lng="-5.935156" name="Bradbury Place" spot="1" number="3924" bikes="4" bike_racks="16" free_racks="12" terminal_type="7inch" bike_numbers="83399,83366,82903,82914" bike_types='{"undefined":1,"14":3}' place_type="0" rack_locks="1" ><bike number="83399" bike_type="0" active="1" state="ok" /><bike number="83366" bike_type="0" active="1" state="ok" /><bike number="82903" bike_type="0" active="1" state="ok" /><bike number="82914" bike_type="0" active="1" state="ok" /></place><place uid="318546" lat="54.601213411626" lng="-5.931361913681" name="Royal Avenue / Castlecourt" spot="1" number="3925" bikes="1" bike_racks="12" free_racks="11" terminal_type="7inch" bike_numbers="83394" place_type="0" rack_locks="1" /><place uid="318548" lat="54.601393641225" lng="-5.925954580307" name="Cotton Court / Waring Street" spot="1" number="3926" bikes="0" bike_racks="12" free_racks="11" terminal_type="7inch" place_type="0" rack_locks="1" /><place uid="318550" lat="54.602654" lng="-5.92972" name="Writer's Square / St Anne's Cathedral" spot="1" number="3931" bikes="0" bike_racks="16" free_racks="16" terminal_type="7inch" place_type="0" rack_locks="1" /><place uid="318552" lat="54.595924" lng="-5.929892" name="Linenhall Street / Donegall Square South" spot="1" number="3928" bikes="5" bike_racks="16" free_racks="9" terminal_type="7inch" bike_numbers="83144,83110,83096,83434,83380" bike_types='{"14":5,"undefined":1}' place_type="0" rack_locks="1" ><bike number="83144" bike_type="0" active="1" state="ok" /><bike number="83110" bike_type="0" active="1" state="ok" /><bike number="83096" bike_type="0" active="1" state="ok" /><bike number="83434" bike_type="0" active="1" state="ok" /><bike number="83380" bike_type="0" active="1" state="ok" /></place><place uid="318553" lat="54.597721" lng="-5.927799" name="Arthur Street / Chichester Street" spot="1" number="3929" bikes="3" bike_racks="18" free_racks="14" terminal_type="7inch" bike_numbers="83317,83302,83409" bike_types='{"14":2,"undefined":1}' place_type="0" rack_locks="1" ><bike number="83317" bike_type="0" active="1" state="ok" /><bike number="83302" bike_type="0" active="1" state="ok" /><bike number="83409" bike_type="0" active="1" state="ok" /></place><place uid="344898" lat="54.591251" lng="-5.922562" name="Gasworks (Lagan Towpath)" spot="1" number="3927" bikes="5" bike_racks="16" free_racks="8" terminal_type="7inch" bike_numbers="83052,83050,83018,83012,83333" bike_types='{"14":5,"undefined":1}' place_type="0" rack_locks="1" ><bike number="83052" bike_type="0" active="1" state="ok" /><bike number="83050" bike_type="0" active="1" state="ok" /><bike number="83018" bike_type="0" active="1" state="ok" /><bike number="83012" bike_type="0" active="1" state="ok" /><bike number="83333" bike_type="0" active="1" state="ok" /></place><place uid="352517" lat="54.597263697179" lng="-5.9210354089737" name="Waterfront" spot="1" number="3908" bikes="3" bike_racks="24" free_racks="20" terminal_type="7inch" bike_numbers="83163,83341,83266" bike_types='{"14":3}' place_type="0" rack_locks="1" ><bike number="83163" bike_type="0" active="1" state="ok" /><bike number="83341" bike_type="0" active="1" state="ok" /><bike number="83266" bike_type="0" active="1" state="ok" /></place><place uid="353453" lat="54.599298" lng="-5.93008" name="Castle Place / Royal Avenue" spot="1" number="3912" bikes="0" bike_racks="22" free_racks="22" terminal_type="7inch" place_type="0" rack_locks="1" /><place uid="517255" lat="54.584283810472" lng="-5.9366565942764" name="Queens University / University Road " spot="1" number="3933" bikes="5" bike_racks="16" free_racks="11" terminal_type="7inch" bike_numbers="83094,83010,83220,83202,82961" bike_types='{"14":5}' place_type="0" rack_locks="1" ><bike number="83094" bike_type="0" active="1" state="ok" /><bike number="83010" bike_type="0" active="1" state="ok" /><bike number="83220" bike_type="0" active="1" state="ok" /><bike number="83202" bike_type="0" active="1" state="ok" /><bike number="82961" bike_type="0" active="1" state="ok" /></place><place uid="555520" lat="54.584049537784" lng="-5.9328201762401" name="Queens University / Botanic Gardens " spot="1" number="3934" bikes="5" bike_racks="14" free_racks="9" terminal_type="7inch" bike_numbers="83161,83066,83307,83241,83351" bike_types='{"14":5,"undefined":1}' place_type="0" rack_locks="1" ><bike number="83161" bike_type="0" active="1" state="ok" /><bike number="83066" bike_type="0" active="1" state="ok" /><bike number="83307" bike_type="0" active="1" state="ok" /><bike number="83241" bike_type="0" active="1" state="ok" /><bike number="83351" bike_type="0" active="1" state="ok" /></place><place uid="566097" lat="54.605694055706" lng="-5.9112238883972" name="Titanic Belfast Met" spot="1" number="3932" bikes="5" bike_racks="18" free_racks="5" terminal_type="7inch" bike_numbers="83155,83282,83238,83189,83415" bike_types='{"14":5,"undefined":5}' place_type="0" rack_locks="1" ><bike number="83155" bike_type="0" active="1" state="ok" /><bike number="83282" bike_type="0" active="1" state="ok" /><bike number="83238" bike_type="0" active="1" state="ok" /><bike number="83189" bike_type="0" active="1" state="ok" /><bike number="83415" bike_type="0" active="1" state="ok" /></place><place uid="1189161" lat="54.589608675276" lng="-5.9582581401264" name="Royal Victoria Hospital" spot="1" number="3936" bikes="0" bike_racks="20" free_racks="20" terminal_type="7inch" place_type="0" rack_locks="1" /><place uid="1257794" lat="54.587034922101" lng="-5.9391617774963" name="Belfast City Hospital Lisburn Rd" spot="1" number="3935" bikes="0" bike_racks="18" free_racks="18" terminal_type="7inch" place_type="0" rack_locks="1" /><place uid="1651423" lat="54.608677791669" lng="-5.9412253614573" name="Mater Hospital/Crumlin Road" spot="1" number="3937" bikes="1" bike_racks="10" free_racks="9" terminal_type="7inch" bike_numbers="82944" bike_types='{"14":1}' place_type="0" rack_locks="1" ><bike number="82944" bike_type="0" active="1" state="ok" /></place><place uid="1728242" lat="54.603847" lng="-5.945705" name="Shankill Leisure Centre/ Shankill Road" spot="1" number="3938" bikes="0" bike_racks="18" free_racks="18" terminal_type="7inch" place_type="0" rack_locks="1" /><place uid="1728296" lat="54.595377270367" lng="-5.9489464759827" name="Grosvenor Road/ Servia Street" spot="1" number="3940" bikes="1" bike_racks="12" free_racks="10" terminal_type="7inch" bike_numbers="82935" bike_types='{"14":1}' place_type="0" rack_locks="1" ><bike number="82935" bike_type="0" active="1" state="ok" /></place><place uid="1839423" lat="54.612131399427" lng="-5.9424233436584" name="Girdwood Community Hub/ Cliftonville Park Avenue" spot="1" number="3942" bikes="0" bike_racks="18" free_racks="18" terminal_type="7inch" place_type="0" rack_locks="1" /><place uid="1941814" lat="54.612429630058" lng="-5.9368443489075" name="Antrim Road / Duncairn Centre" spot="1" number="3943" bikes="0" bike_racks="8" free_racks="8" terminal_type="7inch" place_type="0" rack_locks="1" /><place uid="2198906" lat="54.598385" lng="-5.89214" name="CS Lewis Square" spot="1" number="3944" bikes="4" bike_racks="16" free_racks="11" terminal_type="7inch" bike_numbers="83117,83044,82923,82906" bike_types='{"14":4}' place_type="0" rack_locks="1" ><bike number="83117" bike_type="0" active="1" state="ok" /><bike number="83044" bike_type="0" active="1" state="ok" /><bike number="82923" bike_type="0" active="1" state="ok" /><bike number="82906" bike_type="0" active="1" state="ok" /></place><place uid="2999089" lat="54.599491868009" lng="-5.9461355209351" name="Falls Road/Twin Spire" spot="1" number="3941" bikes="0" bike_racks="8" free_racks="8" terminal_type="7inch" place_type="0" rack_locks="1" /></city></country><country lat="25.7999" lng="8.4375" zoom="1" name="nextbike World" hotline="+443300109343" domain="nw" country="IN" country_name="India" terms="https://nextbike.com/index.php?aam_media=1321" policy="" website="http://www.nextbike.com/" booked_bikes="0" set_point_bikes="8" available_bikes="2" capped_available_bikes="1" ></country></markers>